{"type":"FeatureCollection","features":[{"type":"Feature","id":0,"geometry":{"type":"Point","coordinates":[110.32567229999999,-6.974626999999999]},"properties":{"FID":0,"NAME":"KI Wijayakusuma","address":"Jalan Raya Semarang - Kendal KM. 12, Jl. Tugu Industri I No.1, Randu Garut, Kec. Tugu, Kota Semarang, Jawa Tengah 50153","no":3,"Kode":"3a","Luas":250}},{"type":"Feature","id":1,"geometry":{"type":"Point","coordinates":[110.4281014,-6.9483693000000013]},"properties":{"FID":1,"NAME":"Tanjung Emas Export Processing Zone","address":"Tanjung Mas, North Semarang, Semarang City, Central Java","no":5,"Kode":"3c","Luas":30}},{"type":"Feature","id":2,"geometry":{"type":"Point","coordinates":[110.3290267,-7.0425072999999996]},"properties":{"FID":2,"NAME":"BSB Industrial Park","address":"Jl. Raya Semarang-Boja, Jatibarang, Kec. Mijen, Kota Semarang, Jawa Tengah 50219","no":4,"Kode":"3b","Luas":112}},{"type":"Feature","id":3,"geometry":{"type":"Point","coordinates":[110.4703842,-6.9526946999999986]},"properties":{"FID":3,"NAME":"KI Terboyo Park","address":"Jl. Kaligawe Raya No.KM.5-6, Trimulyo, Kec. Genuk, Kota Semarang, Jawa Tengah 50118","no":6,"Kode":"3d","Luas":300}},{"type":"Feature","id":4,"geometry":{"type":"Point","coordinates":[110.3602271,-6.9925215999999999]},"properties":{"FID":4,"NAME":"KI Candi","address":"Jl Gatot Subroto No.1 No. 7, Purwoyoso, Kec. Ngaliyan, Kota Semarang, Jawa Tengah 50146","no":7,"Kode":"3e","Luas":300}},{"type":"Feature","id":5,"geometry":{"type":"Point","coordinates":[110.33724239999999,-6.9901109999999997]},"properties":{"FID":5,"NAME":"KI Guna Mekar Indonesia","address":"Jl. Tambak Aji 2 No.7, Tambakaji, Kec. Ngaliyan, Kota Semarang, Jawa Tengah 50185","no":8,"Kode":"3f","Luas":130}},{"type":"Feature","id":6,"geometry":{"type":"Point","coordinates":[110.34641824364255,-6.9829898183752412]},"properties":{"FID":6,"NAME":"KI Tambak Aji","address":" ","no":11,"Kode":"3i","Luas":130}},{"type":"Feature","id":7,"geometry":{"type":"Point","coordinates":[110.42728685576149,-6.9532287593252464]},"properties":{"FID":7,"NAME":"KI Tanjung Mas","address":" ","no":10,"Kode":"3h","Luas":101}},{"type":"Feature","id":8,"geometry":{"type":"Point","coordinates":[110.41419765709499,-6.9492661845205399]},"properties":{"FID":8,"NAME":"KI Sinar Centra Cipta","address":" ","no":9,"Kode":"3g","Luas":95}},{"type":"Feature","id":9,"geometry":{"type":"Point","coordinates":[110.45678239999999,-6.9579296999999993]},"properties":{"FID":9,"NAME":"LIK Bugangan","address":"2FR4+RPF, Muktiharjo Lor, Genuk, Semarang City, Central Java 50111","no":12,"Kode":"3j","Luas":100}}]}